{
  "type": "FeatureCollection",
  "features": [
    {
      "type": "Feature",
      "properties": {
        "title": "Songsan",
        "description": "https://onvaessayer.github.io/gitshareGitDataset1/songSan/restaurant.json",
		"infobox": true
		
		
      },
      "geometry": {
        "type": "Point","coordinates": [2.29935,48.836747]
      }
    },
    {
      "type": "Feature",
      "properties": {
        "title": "le relais",
        "description": "https://onvaessayer.github.io/gitshareGitDataset1/relaisDeLaPlace/restaurant.json",
		"infobox": true
		
		
      },
      "geometry": {
        "type": "Point","coordinates": [2.306638,48.836606]
      }
    },
    {
      "type": "Feature",
      "properties": {
        "title": "Ristorante Roma",
        "description": "https://onvaessayer.github.io/gitshareGitDataset1/RistoranteRoma/restaurant.json",
		"infobox": true
      },
      "geometry": {
        "type": "Point","coordinates": [2.3223007,48.839529]
      }
    },
    {
      "type": "Feature",
      "properties": {
        "title": "Indiana Cafe",
        "description": "https://onvaessayer.github.io/gitshareGitDataset1/IndianaCafe/restaurant.json",
		"infobox": true
      },
      "geometry": {
        "type": "Point","coordinates": [2.3643052,48.8268811]
      }
    },
    {
      "type": "Feature",
      "properties": {
        "title": "Le Saotico",
        "description": "https://onvaessayer.github.io/gitshareGitDataset1/LeSaotico/restaurant.json",
		"infobox": true
      },
      "geometry": {
        "type": "Point","coordinates": [2.3394846,48.870623]
      }
    },
    {
      "type": "Feature",
      "properties": {
        "title": "Dominos Pizza",
        "description": "https://onvaessayer.github.io/gitshareGitDataset1/DominosPizza/restaurant.json",
		"infobox": true
      },
      "geometry": {
        "type": "Point","coordinates": [2.3727438,48.8678975]
      }
    },
    {
      "type": "Feature",
      "properties": {
        "title": "Momoka",
        "description": "https://onvaessayer.github.io/gitshareGitDataset1/momoka/restaurant.json",
		"infobox": true
      },
      "geometry": {
        "type": "Point","coordinates": [2.3334827,48.8791916]
      }
    }
  ]
}